{
  "resorts": [
    {
      "name": "Park City Mountain",
      "state": "UT",
      "latitude": 40.6514,
      "longitude": -111.5080,
      "elevation_ft": 6900,
      "avg_snowfall_inches": 355,
      "pass_type": "EPIC"
    },
    {
      "name": "Deer Valley",
      "state": "UT",
      "latitude": 40.6375,
      "longitude": -111.4783,
      "elevation_ft": 6570,
      "avg_snowfall_inches": 300,
      "pass_type": "IKON"
    },
    {
      "name": "Snowbird",
      "state": "UT",
      "latitude": 40.5830,
      "longitude": -111.6538,
      "elevation_ft": 7760,
      "avg_snowfall_inches": 500,
      "pass_type": "IKON"
    },
    {
      "name": "Alta",
      "state": "UT",
      "latitude": 40.5884,
      "longitude": -111.6386,
      "elevation_ft": 8530,
      "avg_snowfall_inches": 560,
      "pass_type": "IKON"
    },
    {
      "name": "Brighton",
      "state": "UT",
      "latitude": 40.5980,
      "longitude": -111.5832,
      "elevation_ft": 8755,
      "avg_snowfall_inches": 500,
      "pass_type": "IKON"
    },
    {
      "name": "Solitude",
      "state": "UT",
      "latitude": 40.6199,
      "longitude": -111.5919,
      "elevation_ft": 7988,
      "avg_snowfall_inches": 500,
      "pass_type": "IKON"
    },
    {
      "name": "Snowbasin",
      "state": "UT",
      "latitude": 41.2160,
      "longitude": -111.8569,
      "elevation_ft": 6400,
      "avg_snowfall_inches": 300,
      "pass_type": "IKON"
    },
    {
      "name": "Vail",
      "state": "CO",
      "latitude": 39.6403,
      "longitude": -106.3742,
      "elevation_ft": 8120,
      "avg_snowfall_inches": 354,
      "pass_type": "EPIC"
    },
    {
      "name": "Beaver Creek",
      "state": "CO",
      "latitude": 39.6042,
      "longitude": -106.5165,
      "elevation_ft": 8100,
      "avg_snowfall_inches": 325,
      "pass_type": "EPIC"
    },
    {
      "name": "Breckenridge",
      "state": "CO",
      "latitude": 39.4817,
      "longitude": -106.0384,
      "elevation_ft": 9600,
      "avg_snowfall_inches": 353,
      "pass_type": "EPIC"
    },
    {
      "name": "Keystone",
      "state": "CO",
      "latitude": 39.6069,
      "longitude": -105.9497,
      "elevation_ft": 9280,
      "avg_snowfall_inches": 235,
      "pass_type": "EPIC"
    },
    {
      "name": "Crested Butte",
      "state": "CO",
      "latitude": 38.8991,
      "longitude": -106.9658,
      "elevation_ft": 9375,
      "avg_snowfall_inches": 300,
      "pass_type": "EPIC"
    },
    {
      "name": "Steamboat",
      "state": "CO",
      "latitude": 40.4572,
      "longitude": -106.8045,
      "elevation_ft": 6900,
      "avg_snowfall_inches": 349,
      "pass_type": "IKON"
    },
    {
      "name": "Winter Park",
      "state": "CO",
      "latitude": 39.8841,
      "longitude": -105.7627,
      "elevation_ft": 9000,
      "avg_snowfall_inches": 325,
      "pass_type": "IKON"
    },
    {
      "name": "Copper Mountain",
      "state": "CO",
      "latitude": 39.5022,
      "longitude": -106.1497,
      "elevation_ft": 9712,
      "avg_snowfall_inches": 305,
      "pass_type": "IKON"
    },
    {
      "name": "Aspen Mountain",
      "state": "CO",
      "latitude": 39.1869,
      "longitude": -106.8178,
      "elevation_ft": 7945,
      "avg_snowfall_inches": 300,
      "pass_type": "IKON"
    },
    {
      "name": "Aspen Highlands",
      "state": "CO",
      "latitude": 39.1822,
      "longitude": -106.8556,
      "elevation_ft": 8040,
      "avg_snowfall_inches": 300,
      "pass_type": "IKON"
    },
    {
      "name": "Snowmass",
      "state": "CO",
      "latitude": 39.2130,
      "longitude": -106.9378,
      "elevation_ft": 8104,
      "avg_snowfall_inches": 300,
      "pass_type": "IKON"
    },
    {
      "name": "Telluride",
      "state": "CO",
      "latitude": 37.9375,
      "longitude": -107.8123,
      "elevation_ft": 8725,
      "avg_snowfall_inches": 309,
      "pass_type": "EPIC"
    },
    {
      "name": "Arapahoe Basin",
      "state": "CO",
      "latitude": 39.6426,
      "longitude": -105.8719,
      "elevation_ft": 10780,
      "avg_snowfall_inches": 350,
      "pass_type": "IKON"
    },
    {
      "name": "Purgatory",
      "state": "CO",
      "latitude": 37.6303,
      "longitude": -107.8142,
      "elevation_ft": 8793,
      "avg_snowfall_inches": 260,
      "pass_type": "IKON"
    },
    {
      "name": "Mammoth Mountain",
      "state": "CA",
      "latitude": 37.6308,
      "longitude": -119.0326,
      "elevation_ft": 7953,
      "avg_snowfall_inches": 400,
      "pass_type": "IKON"
    },
    {
      "name": "Palisades Tahoe",
      "state": "CA",
      "latitude": 39.1969,
      "longitude": -120.2358,
      "elevation_ft": 6200,
      "avg_snowfall_inches": 400,
      "pass_type": "IKON"
    },
    {
      "name": "Heavenly",
      "state": "CA",
      "latitude": 38.9353,
      "longitude": -119.9396,
      "elevation_ft": 6540,
      "avg_snowfall_inches": 360,
      "pass_type": "EPIC"
    },
    {
      "name": "Northstar",
      "state": "CA",
      "latitude": 39.2746,
      "longitude": -120.1211,
      "elevation_ft": 6330,
      "avg_snowfall_inches": 350,
      "pass_type": "EPIC"
    },
    {
      "name": "Kirkwood",
      "state": "CA",
      "latitude": 38.6850,
      "longitude": -120.0653,
      "elevation_ft": 7800,
      "avg_snowfall_inches": 500,
      "pass_type": "EPIC"
    },
    {
      "name": "Big Bear Mountain",
      "state": "CA",
      "latitude": 34.2269,
      "longitude": -116.8912,
      "elevation_ft": 7140,
      "avg_snowfall_inches": 100,
      "pass_type": "IKON"
    },
    {
      "name": "Jackson Hole",
      "state": "WY",
      "latitude": 43.5875,
      "longitude": -110.8279,
      "elevation_ft": 6311,
      "avg_snowfall_inches": 458,
      "pass_type": "IKON"
    },
    {
      "name": "Big Sky",
      "state": "MT",
      "latitude": 45.2856,
      "longitude": -111.4019,
      "elevation_ft": 7500,
      "avg_snowfall_inches": 400,
      "pass_type": "IKON"
    },
    {
      "name": "Whitefish Mountain",
      "state": "MT",
      "latitude": 48.4819,
      "longitude": -114.3492,
      "elevation_ft": 4464,
      "avg_snowfall_inches": 300,
      "pass_type": "IKON"
    },
    {
      "name": "Sun Valley",
      "state": "ID",
      "latitude": 43.6807,
      "longitude": -114.4097,
      "elevation_ft": 5750,
      "avg_snowfall_inches": 220,
      "pass_type": "EPIC"
    },
    {
      "name": "Taos Ski Valley",
      "state": "NM",
      "latitude": 36.5969,
      "longitude": -105.4544,
      "elevation_ft": 9207,
      "avg_snowfall_inches": 305,
      "pass_type": "IKON"
    },
    {
      "name": "Crystal Mountain",
      "state": "WA",
      "latitude": 46.9282,
      "longitude": -121.5045,
      "elevation_ft": 4400,
      "avg_snowfall_inches": 486,
      "pass_type": "IKON"
    },
    {
      "name": "Stevens Pass",
      "state": "WA",
      "latitude": 47.7448,
      "longitude": -121.0890,
      "elevation_ft": 4061,
      "avg_snowfall_inches": 460,
      "pass_type": "EPIC"
    },
    {
      "name": "Mt. Bachelor",
      "state": "OR",
      "latitude": 43.9792,
      "longitude": -121.6886,
      "elevation_ft": 6300,
      "avg_snowfall_inches": 462,
      "pass_type": "IKON"
    },
    {
      "name": "Killington",
      "state": "VT",
      "latitude": 43.6045,
      "longitude": -72.8201,
      "elevation_ft": 4241,
      "avg_snowfall_inches": 250,
      "pass_type": "IKON"
    },
    {
      "name": "Stowe",
      "state": "VT",
      "latitude": 44.5303,
      "longitude": -72.7814,
      "elevation_ft": 3625,
      "avg_snowfall_inches": 333,
      "pass_type": "EPIC"
    },
    {
      "name": "Sugarbush",
      "state": "VT",
      "latitude": 44.1357,
      "longitude": -72.8994,
      "elevation_ft": 2600,
      "avg_snowfall_inches": 250,
      "pass_type": "IKON"
    },
    {
      "name": "Okemo",
      "state": "VT",
      "latitude": 43.4012,
      "longitude": -72.7170,
      "elevation_ft": 1144,
      "avg_snowfall_inches": 200,
      "pass_type": "EPIC"
    },
    {
      "name": "Stratton",
      "state": "VT",
      "latitude": 43.1134,
      "longitude": -72.9084,
      "elevation_ft": 1872,
      "avg_snowfall_inches": 180,
      "pass_type": "IKON"
    },
    {
      "name": "Loon Mountain",
      "state": "NH",
      "latitude": 44.0364,
      "longitude": -71.6217,
      "elevation_ft": 2733,
      "avg_snowfall_inches": 130,
      "pass_type": "EPIC"
    },
    {
      "name": "Sunday River",
      "state": "ME",
      "latitude": 44.4734,
      "longitude": -70.8567,
      "elevation_ft": 800,
      "avg_snowfall_inches": 167,
      "pass_type": "EPIC"
    },
    {
      "name": "Sugarloaf",
      "state": "ME",
      "latitude": 45.0314,
      "longitude": -70.3131,
      "elevation_ft": 2820,
      "avg_snowfall_inches": 200,
      "pass_type": "IKON"
    },
    {
      "name": "Whistler Blackcomb",
      "state": "BC",
      "country": "CA",
      "latitude": 50.1150,
      "longitude": -122.9500,
      "elevation_ft": 2140,
      "avg_snowfall_inches": 458,
      "pass_type": "EPIC"
    },
    {
      "name": "Mont Tremblant",
      "state": "QC",
      "country": "CA",
      "latitude": 46.1185,
      "longitude": -74.5962,
      "elevation_ft": 755,
      "avg_snowfall_inches": 165,
      "pass_type": "IKON"
    },
    {
      "name": "Lake Louise",
      "state": "AB",
      "country": "CA",
      "latitude": 51.4419,
      "longitude": -116.1622,
      "elevation_ft": 5400,
      "avg_snowfall_inches": 200,
      "pass_type": "IKON"
    },
    {
      "name": "Sun Peaks",
      "state": "BC",
      "country": "CA",
      "latitude": 50.8844,
      "longitude": -119.8859,
      "elevation_ft": 4116,
      "avg_snowfall_inches": 177,
      "pass_type": "IKON"
    },
    {
      "name": "Banff Sunshine",
      "state": "AB",
      "country": "CA",
      "latitude": 51.1150,
      "longitude": -115.7650,
      "elevation_ft": 5440,
      "avg_snowfall_inches": 235,
      "pass_type": "IKON"
    },
    {
      "name": "Big White",
      "state": "BC",
      "country": "CA",
      "latitude": 49.7216,
      "longitude": -118.9266,
      "elevation_ft": 4950,
      "avg_snowfall_inches": 295,
      "pass_type": null
    },
    {
      "name": "Blue Mountain",
      "state": "ON",
      "country": "CA",
      "latitude": 44.5040,
      "longitude": -80.3120,
      "elevation_ft": 755,
      "avg_snowfall_inches": 100,
      "pass_type": "IKON"
    },
    {
      "name": "Panorama",
      "state": "BC",
      "country": "CA",
      "latitude": 50.4603,
      "longitude": -116.2403,
      "elevation_ft": 3773,
      "avg_snowfall_inches": 204,
      "pass_type": "IKON"
    },
    {
      "name": "Fernie Alpine Resort",
      "state": "BC",
      "country": "CA",
      "latitude": 49.4639,
      "longitude": -115.0866,
      "elevation_ft": 3500,
      "avg_snowfall_inches": 345,
      "pass_type": "EPIC"
    },
    {
      "name": "SilverStar",
      "state": "BC",
      "country": "CA",
      "latitude": 50.3598,
      "longitude": -119.0610,
      "elevation_ft": 3780,
      "avg_snowfall_inches": 276,
      "pass_type": null
    }
  ]
}
